[
    {
        "name": "Athletico Paranaense",
        "location": "Curitiba",
        "state": "Paraná",
        "stadium": "Arena da Baixada",
        "capacity": "42.37",
        "ranking": "1",
        "image": "athletico-paranaense.png"
    },
    {
        "name": "Atlético Mineiro",
        "location": "Belo Horizonte",
        "state": "Minas Gerais",
        "stadium": "Independência",
        "capacity": "23.018",
        "ranking": "2",
        "image": "atletico-mineiro.png"
    },
    {
        "name": "Avaí",
        "location": "Florianópolis",
        "state": "Santa Catarina",
        "stadium": "Ressacada",
        "capacity": "17.8",
        "ranking": "3",
        "image": "avai.png"
    },
    {
        "name": "Bahia",
        "location": "Salvador",
        "state": "Bahia",
        "stadium": "Arena Fonte Nova",
        "capacity": "47.907",
        "ranking": "4",
        "image": "bahia.png"
    },
    {
        "name": "Botafogo",
        "location": "Rio de Janeiro",
        "state": "Rio de Janeiro",
        "stadium": "Olímpico Nilton Santos",
        "capacity": "44.661",
        "ranking": "5",
        "image": "botafogo.png"
    },
    {
        "name": "Ceará",
        "location": "Fortaleza",
        "state": "Ceará",
        "stadium": "Arena Castelão",
        "capacity": "63.903",
        "ranking": "6",
        "image": "ceara.png"
    },
    {
        "name": "Chapecoense",
        "location": "Chapecó",
        "state": "Santa Catarina",
        "stadium": "Arena Condá",
        "capacity": "20.089",
        "ranking": "7",
        "image": "chapecoense.png"
    },
    {
        "name": "Corinthians",
        "location": "São Paulo",
        "state": "São Paulo",
        "stadium": "Arena Corinthians",
        "capacity": "47.605",
        "ranking": "8",
        "image": "corinthians.png"
    },
    {
        "name": "Cruzeiro",
        "location": "Belo Horizonte",
        "state": "Minas Gerais",
        "stadium": "Mineirão",
        "capacity": "61.846",
        "ranking": "9",
        "image": "cruzeiro.png"
    },
    {
        "name": "CSA",
        "location": "Maceió",
        "state": "Alagoas",
        "stadium": "Rei Pelé",
        "capacity": "17.126",
        "ranking": "10",
        "image": "csa.png"

    },
    {
        "name": "Flamengo",
        "location": "Rio de Janeiro",
        "state": "Rio de Janeiro",
        "stadium": "Maracanã",
        "capacity": "78.838",
        "ranking": "11",
        "image": "flamengo.png"
    },
    {
        "name": "Fluminense",
        "location": "Rio de Janeiro",
        "state": "Rio de Janeiro",
        "stadium": "Maracanã",
        "capacity": "78.838",
        "ranking": "12",
        "image": "fluminense.png"
    },
    {
        "name": "Fortaleza",
        "location": "Fortaleza",
        "state": "Ceará",
        "stadium": "Arena Castelão",
        "capacity": "63.903",
        "ranking": "13",
        "image": "fortaleza.png"
    },
    {
        "name": "Goiás",
        "location": "Goiânia",
        "state": "Goiás",
        "stadium": "Serra Dourada",
        "capacity": "50.049",
        "ranking": "14",
        "image": "goias.png"
    },
    {
        "name": "Grêmio",
        "location": "Porto Alegre",
        "state": "Rio Grande do Sul",
        "stadium": "Arena do Grêmio",
        "capacity": "55.662",
        "ranking": "15",
        "image": "gremio.png"
    },
    {
        "name": "Internacional",
        "location": "Porto Alegre",
        "state": "Rio Grande do Sul",
        "stadium": "Beira-Rio",
        "capacity": "50.128",
        "ranking": "16",
        "image": "internacional.png"
    },
    {
        "name": "Palmeiras",
        "location": "São Paulo",
        "state": "São Paulo",
        "stadium": "Allianz Parque",
        "capacity": "43.713",
        "ranking": "17",
        "image": "palmeiras.png"
    },
    {
        "name": "Santos",
        "location": "Santos",
        "state": "São Paulo",
        "stadium": "Urbano Caldeira",
        "capacity": "16.068",
        "ranking": "18",
        "image": "santos.png"
    },
    {
        "name": "São Paulo",
        "location": "São Paulo",
        "state": "São Paulo",
        "stadium": "Morumbi",
        "capacity": "72.039",
        "ranking": "19",
        "image": "sao-paulo.png"
    },
    {
        "name": "Vasco da Gama",
        "location": "Rio de Janeiro",
        "state": "Rio de Janeiro",
        "stadium": "São Januário",
        "capacity": "24.584",
        "ranking": "20",
        "image": "vasco-da-gama.png"
    }
]